{"type": "FeatureCollection", "features": [{"type": "Feature", "geometry": {"type": "Point", "coordinates": [9.8125043, 44.6242913]}, "properties": {"name": "Tosca", "context": "n opera was playing. I was drawn to the screen as Tosca declared, with power and sorrow, her passion for "}}, {"type": "Feature", "geometry": {"type": "Point", "coordinates": [-77.26557848822242, 39.17130815]}, "properties": {"name": "Germantown", "context": " cramped quarters in Logan Square and migrated to Germantown, Pennsylvania. For the next few years we lived in"}}, {"type": "Feature", "geometry": {"type": "Point", "coordinates": [-77.7278831, 40.9699889]}, "properties": {"name": "Pennsylvania", "context": "rters in Logan Square and migrated to Germantown, Pennsylvania. For the next few years we lived in temporary hou"}}, {"type": "Feature", "geometry": {"type": "Point", "coordinates": [-74.4041622, 40.0757384]}, "properties": {"name": "New Jersey", "context": "nd had to pack up to begin a new life in southern New Jersey. My mother gave birth to a fourth child whom we a"}}, {"type": "Feature", "geometry": {"type": "Point", "coordinates": [-75.1635262, 39.9527237]}, "properties": {"name": "Philadelphia", "context": "ok us on a rare excursion to the Museum of Art in Philadelphia. My parents worked very hard, and taking four chi"}}, {"type": "Feature", "geometry": {"type": "Point", "coordinates": [76.9754241, 8.4495261]}, "properties": {"name": "Toddy", "context": "ed at night. After doing our chores and homework, Toddy, Linda, and I would dance to the likes of James B"}}, {"type": "Feature", "geometry": {"type": "Point", "coordinates": [-100.32446352234815, 25.64885705]}, "properties": {"name": "Frida", "context": "e romantic to my young mind. I imagined myself as Frida to Diego, both muse and maker. I dreamed of meeti"}}, {"type": "Feature", "geometry": {"type": "Point", "coordinates": [-80.3977319, 9.1431301]}, "properties": {"name": "Diego", "context": "c to my young mind. I imagined myself as Frida to Diego, both muse and maker. I dreamed of meeting an art"}}, {"type": "Feature", "geometry": {"type": "Point", "coordinates": [-73.7048024, 40.7246999]}, "properties": {"name": "Floral Park", "context": "e was born on Monday, November 4, 1946. Raised in Floral Park, Long Island, the third of six children, he was a"}}, {"type": "Feature", "geometry": {"type": "Point", "coordinates": [-73.09942966988302, 40.85149705]}, "properties": {"name": "Long Island", "context": " Monday, November 4, 1946. Raised in Floral Park, Long Island, the third of six children, he was a mischievous "}}, {"type": "Feature", "geometry": {"type": "Point", "coordinates": [-60.760731449999994, -32.9417083]}, "properties": {"name": "Baudelaire", "context": " thrift stores like those worn by Oscar Wilde and Baudelaire.Janet remained my trusted friend through my term,"}}, {"type": "Feature", "geometry": {"type": "Point", "coordinates": [-75.1198911, 39.9448402]}, "properties": {"name": "Camden", "context": "h the full moon. They drove me to the hospital in Camden. Due to my unwed status, the nurses were very cru"}}, {"type": "Feature", "geometry": {"type": "Point", "coordinates": [-86.68369799094495, 36.253332650000004]}, "properties": {"name": "anesthesia", "context": " the street corners of Camden, New Jersey. As the anesthesia took effect, the last thing I remember was the do"}}, {"type": "Feature", "geometry": {"type": "Point", "coordinates": [-2.6778593, 43.3143976]}, "properties": {"name": "Guernica", "context": "ild was born on the anniversary of the bombing of Guernica. I remember thinking of the painting, a weeping m"}}, {"type": "Feature", "geometry": {"type": "Point", "coordinates": [1.0939658, 49.4404591]}, "properties": {"name": "Rouen", "context": "ho delivered her imprisoned king to his throne in Rouen, only to be betrayed and burned at the stake on t"}}, {"type": "Feature", "geometry": {"type": "Point", "coordinates": [-73.9497211, 40.6526006]}, "properties": {"name": "Brooklyn", "context": "to buy a long gray raincoat.\u00a0On that same day, in Brooklyn, Robert dropped acid. He cleared his work area, a"}}, {"type": "Feature", "geometry": {"type": "Point", "coordinates": [-118.085813, 33.8583113]}, "properties": {"name": "South Jersey", "context": "n, of civil rights, but the general feel of rural South Jersey was hardly pro-artist. My few comrades had moved "}}, {"type": "Feature", "geometry": {"type": "Point", "coordinates": [-74.0060152, 40.7127281]}, "properties": {"name": "New York", "context": "s hardly pro-artist. My few comrades had moved to New York to write poetry and study art and I felt very muc"}}, {"type": "Feature", "geometry": {"type": "Point", "coordinates": [-75.1300457, 39.731681]}, "properties": {"name": "Pitman", "context": "ng list at the Columbia Records pressing plant in Pitman and the Campbell Soup Company in Camden, but the "}}, {"type": "Feature", "geometry": {"type": "Point", "coordinates": [2.3483915, 48.8534951]}, "properties": {"name": "Paris", "context": "he Left Bank with grainy black-and-white shots of Paris nightlife in the late fifties. The photographs of"}}, {"type": "Feature", "geometry": {"type": "Point", "coordinates": [-74.0060152, 40.7127281]}, "properties": {"name": "New York City", "context": "as born on Monday. It was a good day to arrive in New York City. No one expected me. Everything awaited me.I imme"}}, {"type": "Feature", "geometry": {"type": "Point", "coordinates": [-100.445882, 39.7837304]}, "properties": {"name": "America", "context": "ments to the arrogant yet philanthropic spirit of America. The character of each quadrant was invigorating "}}, {"type": "Feature", "geometry": {"type": "Point", "coordinates": [-97.1025077, 32.4334742]}, "properties": {"name": "Venus", "context": "th anecdotes of his travels from the heartland to Venus. We walked to the park, sat on a bench, and divid"}}, {"type": "Feature", "geometry": {"type": "Point", "coordinates": [-84.4970393, 38.0464066]}, "properties": {"name": "Lexington", "context": "ood beatnik ballet look. I canvassed Sixtieth and Lexington and as a last resort left an application at Alexa"}}, {"type": "Feature", "geometry": {"type": "Point", "coordinates": [-94.77998289920566, 31.32068008699655]}, "properties": {"name": "Billie", "context": "ritten an elegy for John Coltrane like he did for Billie Holiday.I spent the evening checking out the acti"}}, {"type": "Feature", "geometry": {"type": "Point", "coordinates": [-98.7485305, 37.6280602]}, "properties": {"name": "Pratt", "context": "long.When it got really rough, I would go back to Pratt, occasionally bumping into someone I knew who wou"}}, {"type": "Feature", "geometry": {"type": "Point", "coordinates": [104.999955, 35.0000663]}, "properties": {"name": "China", "context": "hip.\u201d Flower children raised their empty arms and China exploded the H-bomb. Jimi Hendrix set his guitar "}}, {"type": "Feature", "geometry": {"type": "Point", "coordinates": [-121.387742, 36.2231079]}, "properties": {"name": "Monterey", "context": " H-bomb. Jimi Hendrix set his guitar in flames in Monterey. AM radio played \u201cOde to Billie Joe.\u201d There were "}}, {"type": "Feature", "geometry": {"type": "Point", "coordinates": [-74.1723667, 40.735657]}, "properties": {"name": "Newark", "context": "o played \u201cOde to Billie Joe.\u201d There were riots in Newark, Milwaukee, and Detroit. It was the summer of Elv"}}, {"type": "Feature", "geometry": {"type": "Point", "coordinates": [-87.9090751, 43.0386475]}, "properties": {"name": "Milwaukee", "context": " \u201cOde to Billie Joe.\u201d There were riots in Newark, Milwaukee, and Detroit. It was the summer of Elvira Madigan"}}, {"type": "Feature", "geometry": {"type": "Point", "coordinates": [-83.0466403, 42.3315509]}, "properties": {"name": "Detroit", "context": " Joe.\u201d There were riots in Newark, Milwaukee, and Detroit. It was the summer of Elvira Madigan, the summer "}}, {"type": "Feature", "geometry": {"type": "Point", "coordinates": [-0.20801010091724045, 51.422178552056934]}, "properties": {"name": "St. Mark\u2019s Place", "context": "k.Negotiating the thick psychedelic atmosphere of St. Mark\u2019s Place, I was not prepared for the revolution under way."}}, {"type": "Feature", "geometry": {"type": "Point", "coordinates": [66.2385139, 33.7680065]}, "properties": {"name": "Afghanistan", "context": "y countries: Berber bracelets, shell collars from Afghanistan, and a jewel-encrusted Buddha. My favorite object"}}, {"type": "Feature", "geometry": {"type": "Point", "coordinates": [54.5643516, 32.6475314]}, "properties": {"name": "Persia", "context": "ha. My favorite object was a modest necklace from Persia. It was made of two enameled metal plaques bound "}}, {"type": "Feature", "geometry": {"type": "Point", "coordinates": [28.3708548, 39.5680963]}, "properties": {"name": "Dada", "context": " and replaced it with trust.We looked at books on Dada and Surrealism and ended the night immersed in th"}}, {"type": "Feature", "geometry": {"type": "Point", "coordinates": [-71.05586790719096, 42.34081823882591]}, "properties": {"name": "West Fourth Street", "context": "e beads and sheepskin vest. We took the subway to West Fourth Street and spent the afternoon in Washington Square. We "}}, {"type": "Feature", "geometry": {"type": "Point", "coordinates": [5.8923953, 49.6306221]}, "properties": {"name": "Grass", "context": "n to film. His favorite movie was Splendor in the Grass. The only other movie we saw that year was Bonnie"}}, {"type": "Feature", "geometry": {"type": "Point", "coordinates": [78.04401158018945, 15.8050853]}, "properties": {"name": "Bibles", "context": "rk heavy table, cluttered with eighteenth-century Bibles, linen strips, archival tape, rabbit glue, beeswa"}}, {"type": "Feature", "geometry": {"type": "Point", "coordinates": [-7.9749081, 42.0316148]}, "properties": {"name": "Bande", "context": "form for Scribner\u2019s was taken from Anna Karina in Bande \u00e0 part: dark sweater, plaid skirt, black tights, "}}, {"type": "Feature", "geometry": {"type": "Point", "coordinates": [9.710855718028203, 52.376626099999996]}, "properties": {"name": "Faust", "context": "hem both. We were a curious mix of Funny Face and Faust.One cannot imagine the mutual happiness we felt w"}}, {"type": "Feature", "geometry": {"type": "Point", "coordinates": [-99.1789924, 19.3744544]}, "properties": {"name": "Nescaf\u00e9", "context": "ld take a break, I would boil water and make some Nescaf\u00e9.After a particularly good stretch of work, we wou"}}, {"type": "Feature", "geometry": {"type": "Point", "coordinates": [9.432388, 0.4081713]}, "properties": {"name": "Louis", "context": "s; sometimes they worked on the floor next to us. Louis did portraits of us both, Robert with an Indian n"}}, {"type": "Feature", "geometry": {"type": "Point", "coordinates": [-97.4486267, 38.0352315]}, "properties": {"name": "Harvey", "context": "that we were a \u201closers\u2019 salon.\u201dOn special nights, Harvey, Louis, and Robert would share a joint and play h"}}, {"type": "Feature", "geometry": {"type": "Point", "coordinates": [-109.64478729296724, 38.6947756226471]}, "properties": {"name": "magician", "context": "s magic ultimately the victor? Perhaps priest and magician were once one, but the priest, learning humility "}}, {"type": "Feature", "geometry": {"type": "Point", "coordinates": [-79.7667026, 36.4884715]}, "properties": {"name": "Eden", "context": " an animation depicting us in a Tantric Garden of Eden. He needed nude pictures of us to make cutouts fo"}}, {"type": "Feature", "geometry": {"type": "Point", "coordinates": [20.0528304, 49.1631527]}, "properties": {"name": "Satan", "context": "ight, he would recognize a kindred soul, and that Satan would grant him fame and fortune. He did not have"}}, {"type": "Feature", "geometry": {"type": "Point", "coordinates": [-73.9598939, 40.7896239]}, "properties": {"name": "Manhattan", "context": "m the action in \u201cThe City.\u201d Robert loved to go to Manhattan. He felt alive when he crossed the East River, an"}}, {"type": "Feature", "geometry": {"type": "Point", "coordinates": [-90.0517638, 35.1460249]}, "properties": {"name": "Memphis", "context": "her King was gunned down at the Lorraine Hotel in Memphis. There was a picture in the paper of Coretta Scot"}}, {"type": "Feature", "geometry": {"type": "Point", "coordinates": [-69.9618475, 12.5013629]}, "properties": {"name": "Aruba", "context": "ts. Then he decided to tell them we had eloped to Aruba and had gotten married. A friend of his was trave"}}, {"type": "Feature", "geometry": {"type": "Point", "coordinates": [-118.755997, 36.7014631]}, "properties": {"name": "California", "context": "ction year and he represented Robert Kennedy. The California primary was pending and we agreed to meet again a"}}, {"type": "Feature", "geometry": {"type": "Point", "coordinates": [107.9650855, 15.9266657]}, "properties": {"name": "Vietnam", "context": "ls I cherished and who promised to end the war in Vietnam. I saw Kennedy\u2019s candidacy as a way in which idea"}}, {"type": "Feature", "geometry": {"type": "Point", "coordinates": [33.63604780269342, 34.89338278892905]}, "properties": {"name": "Nietzsche", "context": "ef to converse with someone about everything from Nietzsche to Godard. I admired his work and looked forward "}}, {"type": "Feature", "geometry": {"type": "Point", "coordinates": [-0.0111677, 44.9362659]}, "properties": {"name": "Godard", "context": "e with someone about everything from Nietzsche to Godard. I admired his work and looked forward to the kin"}}, {"type": "Feature", "geometry": {"type": "Point", "coordinates": [-122.4193286, 37.7792588]}, "properties": {"name": "San Francisco", "context": "r a student loan, buying the coat and a ticket to San Francisco with some of the money.He said he wanted to talk "}}, {"type": "Feature", "geometry": {"type": "Point", "coordinates": [-73.97749918210806, 40.761612400000004]}, "properties": {"name": "MoMA", "context": "re to pick up a brush myself. Taking my camera to MoMA, I searched for inspiration. I took a series of b"}}, {"type": "Feature", "geometry": {"type": "Point", "coordinates": [138.9184438, 35.1185376]}, "properties": {"name": "Mishima", "context": "ty was a poetic curse, notions I had gleaned from Mishima, Gide, and Genet. I knew nothing of the reality o"}}, {"type": "Feature", "geometry": {"type": "Point", "coordinates": [29.2675469, 26.2540493]}, "properties": {"name": "Egypt", "context": " river of tears. I longed to travel, to Paris, to Egypt, to Samarkand, far from him, far from us.He too h"}}, {"type": "Feature", "geometry": {"type": "Point", "coordinates": [66.9756954, 39.6550017]}, "properties": {"name": "Samarkand", "context": "tears. I longed to travel, to Paris, to Egypt, to Samarkand, far from him, far from us.He too had a path to p"}}, {"type": "Feature", "geometry": {"type": "Point", "coordinates": [1.8883335, 46.603354]}, "properties": {"name": "France", "context": "eafed through the pages we had a longing to visit France. We sat up through the night plotting, and before"}}, {"type": "Feature", "geometry": {"type": "Point", "coordinates": [-18.1059013, 64.9841821]}, "properties": {"name": "Iceland", "context": " our small savings, Linda and I went to Paris via Iceland on a prop plane. It was an arduous journey, and t"}}, {"type": "Feature", "geometry": {"type": "Point", "coordinates": [2.3391535013803098, 48.88546185]}, "properties": {"name": "Montmartre", "context": "ty of our dreams. We stayed at a fleabag hotel in Montmartre and combed the city in search of where Piaf had s"}}, {"type": "Feature", "geometry": {"type": "Point", "coordinates": [-0.1277653, 51.5074456]}, "properties": {"name": "London", "context": "k Jagger releasing scores of white doves into the London sky. I laid my drawing pencils aside and began a "}}, {"type": "Feature", "geometry": {"type": "Point", "coordinates": [114.181807, 22.2800859]}, "properties": {"name": "P.S.", "context": " He sometimes didn\u2019t have enough money to eat.His P.S. was still filled with Robert bravado. \u201cI\u2019ve been "}}, {"type": "Feature", "geometry": {"type": "Point", "coordinates": [-87.9364215, 39.9117014]}, "properties": {"name": "Allerton", "context": "her. I don\u2019t remember how we found our way to the Allerton. It was a terrible place, dark and neglected, wit"}}, {"type": "Feature", "geometry": {"type": "Point", "coordinates": [-86.40809883084937, 32.01129816277048]}, "properties": {"name": "Psycho", "context": "e theater trying to hide from the shower scene in Psycho. It was the one image that made Robert laugh.His "}}, {"type": "Feature", "geometry": {"type": "Point", "coordinates": [4.0050369, 44.938447]}, "properties": {"name": "Artaud", "context": "ow he was a morphine addict, a mix of Nureyev and Artaud. His legs were still muscled but most of his teet"}}, {"type": "Feature", "geometry": {"type": "Point", "coordinates": [-84.3213275, 39.2281144]}, "properties": {"name": "Remington", "context": "ness of Uncle Wiggly, rabbit gentleman. I drag my Remington from under the bed, adjust the ribbon, and insert"}}, {"type": "Feature", "geometry": {"type": "Point", "coordinates": [2.3609876, 48.8351638]}, "properties": {"name": "phobia", "context": "nclude the clap. This was compounded by my needle phobia as the doctor alluded to a regimen of shots. But "}}, {"type": "Feature", "geometry": {"type": "Point", "coordinates": [28.4373147, -26.2550033]}, "properties": {"name": "Springs", "context": "n a photograph of the Pollock-Krasner farm in the Springs.\u201cI was keeping it all safe for you,\u201d he said a bi"}}, {"type": "Feature", "geometry": {"type": "Point", "coordinates": [18.798520796242453, 43.944793700000005]}, "properties": {"name": "Fates", "context": "he goodwill that surrounded us was proof that the Fates were conspiring to help their enthusiastic childr"}}, {"type": "Feature", "geometry": {"type": "Point", "coordinates": [-97.739944, 30.2671147]}, "properties": {"name": "Midnight Cowboy", "context": " Thirteen Most Beautiful Boys, and had a cameo in Midnight Cowboy. He was small and light-footed with an uncanny re"}}, {"type": "Feature", "geometry": {"type": "Point", "coordinates": [-5.1909558, 50.238601]}, "properties": {"name": "Vogue", "context": "h silver fringe, beautifully made and featured in Vogue magazine.Bruce took Robert under his wing, giving"}}, {"type": "Feature", "geometry": {"type": "Point", "coordinates": [-1.2649062, 52.5310214]}, "properties": {"name": "England", "context": "he staircase.Sandy had spent much time working in England, the London of Mary Quant, plastic raincoats, and"}}, {"type": "Feature", "geometry": {"type": "Point", "coordinates": [-88.4179016, 17.6704149]}, "properties": {"name": "gardenia", "context": " silver resembling a glowing hubcap with a single gardenia swimming in its center. I would listen to Beggars"}}, {"type": "Feature", "geometry": {"type": "Point", "coordinates": [-4.113305920509478, 51.68311664524289]}, "properties": {"name": "Dylan", "context": "musician I met in New York. I could relate to his Dylan fixation, and as he put together a song, I saw po"}}, {"type": "Feature", "geometry": {"type": "Point", "coordinates": [-123.03638782124563, 49.2828001]}, "properties": {"name": "Playland", "context": "rty-second Street. We stopped at a photo booth in Playland to take our pictures, a strip of four shots for a"}}, {"type": "Feature", "geometry": {"type": "Point", "coordinates": [-73.9813318, 40.5756208]}, "properties": {"name": "Coney Island", "context": "to the end of the line.I always loved the ride to Coney Island. Just the idea that you could go to the ocean via"}}, {"type": "Feature", "geometry": {"type": "Point", "coordinates": [-3.0423021035810542, 53.444327599999994]}, "properties": {"name": "Brighton Rock", "context": " and looked at Robert. He was like a character in Brighton Rock in his forties-style hat, black net T-shirt, and "}}, {"type": "Feature", "geometry": {"type": "Point", "coordinates": [120.5602008, 16.3927028]}, "properties": {"name": "Tuba", "context": "ther than the composer of the music for Tubby the Tuba. He confirmed this fact and I nearly wept when he"}}, {"type": "Feature", "geometry": {"type": "Point", "coordinates": [-80.8408415, 38.4758406]}, "properties": {"name": "West Virginia", "context": "uals of the Kiowa and songs of the common folk of West Virginia. I felt a kinship with their voices and, so inspi"}}, {"type": "Feature", "geometry": {"type": "Point", "coordinates": [-94.5781416, 39.100105]}, "properties": {"name": "Kansas City", "context": " to the city\u2019s Bermuda Triangle: Brownie\u2019s, Max\u2019s Kansas City, and the Factory, all located within walking dist"}}, {"type": "Feature", "geometry": {"type": "Point", "coordinates": [-2.7397217, 51.1267494]}, "properties": {"name": "Street", "context": "moved from its original location on Forty-seventh Street to 33 Union Square. Brownie\u2019s was a health food r"}}, {"type": "Feature", "geometry": {"type": "Point", "coordinates": [9.2591169, 48.4209332]}, "properties": {"name": "Lichtenstein", "context": "ne, Donald Lyons, Rauschenberg, Dal\u00ed, Billy Name, Lichtenstein, Gerard Malanga, and John Chamberlain. In recent "}}, {"type": "Feature", "geometry": {"type": "Point", "coordinates": [55.3074051, 25.2750643]}, "properties": {"name": "silver kingdom", "context": "aven for those desiring the keys to Andy\u2019s second silver kingdom, often described more as a place of commerce than"}}, {"type": "Feature", "geometry": {"type": "Point", "coordinates": [174.77563834734246, -41.29254056953712]}, "properties": {"name": "Left Bank", "context": "hroat scarf like Yves Montand in Wages of Fear, a Left Bank beat look with green tights and red ballet slippe"}}, {"type": "Feature", "geometry": {"type": "Point", "coordinates": [-92.4479108, 35.2048883]}, "properties": {"name": "Ark.", "context": " back room like an Abyssinian priest guarding the Ark. No one got past her unless she approved. Robert r"}}, {"type": "Feature", "geometry": {"type": "Point", "coordinates": [-75.3045103, 41.6264414]}, "properties": {"name": "Wayne County", "context": "n here, in the land of the so-called drag queens, Wayne County, Holly Woodlawn, Candy Darling, and Jackie Curtis"}}, {"type": "Feature", "geometry": {"type": "Point", "coordinates": [2.6125145, 6.7130276]}, "properties": {"name": "Yoko", "context": "ER! If you want it. Happy Christmas from John and Yoko. It hung above the bookstall where Robert bought "}}, {"type": "Feature", "geometry": {"type": "Point", "coordinates": [-104.7979161, 38.8469071]}, "properties": {"name": "the Virgin Mary", "context": "mber. Robert made me a tie rack with the image of the Virgin Mary. I gave him seven silver skulls on a length of le"}}, {"type": "Feature", "geometry": {"type": "Point", "coordinates": [-98.0697249, 27.7522487]}, "properties": {"name": "Alice", "context": " closely mirrored the \u201ceat me, drink me\u201d scene in Alice in Wonderland. I tried to access her restrained a"}}, {"type": "Feature", "geometry": {"type": "Point", "coordinates": [-70.991668, 42.4134836]}, "properties": {"name": "Wonderland", "context": "mirrored the \u201ceat me, drink me\u201d scene in Alice in Wonderland. I tried to access her restrained and curious rea"}}, {"type": "Feature", "geometry": {"type": "Point", "coordinates": [19.8464986, 41.0326482]}, "properties": {"name": "Trash", "context": "bruary he took me to the Factory to see rushes of Trash. It was the first time we had been invited, and R"}}, {"type": "Feature", "geometry": {"type": "Point", "coordinates": [-117.6982343601137, 33.516260672740124]}, "properties": {"name": "Phaedra", "context": " more offs. I had been in a few plays in college, Phaedra in Euripides\u2019 Hippolytus, and Madame Dubonnet in "}}, {"type": "Feature", "geometry": {"type": "Point", "coordinates": [1.7439977330277923, 52.46665175]}, "properties": {"name": "Tinkerbelle", "context": "ging his new friends. Among them was a girl named Tinkerbelle. She lived along Twenty-third Street at the Londo"}}, {"type": "Feature", "geometry": {"type": "Point", "coordinates": [-119.0419421680373, 50.36632276701222]}, "properties": {"name": "Superstar", "context": "ternational Velvet, was being groomed as the next Superstar, succeeding Edie Sedgwick. David had an intense a"}}, {"type": "Feature", "geometry": {"type": "Point", "coordinates": [-93.044911, 44.666655]}, "properties": {"name": "Dakota", "context": "the city. Robert insisted that I go to one at the Dakota, at the apartment of Charles Henri Ford, who edit"}}, {"type": "Feature", "geometry": {"type": "Point", "coordinates": [-114.4714876, 53.1107791]}, "properties": {"name": "Breton", "context": "er by Gertrude Stein and attended by the likes of Breton, Man Ray, and Djuna Barnes.At one point in the ev"}}, {"type": "Feature", "geometry": {"type": "Point", "coordinates": [9.6134538, 47.7811997]}, "properties": {"name": "Wollensak", "context": "tape, but was having trouble with his recorder, a Wollensak reel-to-reel. \u201cThis tape is more tangled than you"}}, {"type": "Feature", "geometry": {"type": "Point", "coordinates": [23.7139908, 37.9456724]}, "properties": {"name": "n\u2019t", "context": " your own pictures. They\u2019d be better anyway.\u201d\u201cI don\u2019t know. I guess it\u2019s a possibility.\u201dA few days late"}}, {"type": "Feature", "geometry": {"type": "Point", "coordinates": [-77.9755309, 35.992983]}, "properties": {"name": "Nash", "context": "ok me to the Fillmore East to see Crosby, Stills, Nash, and Young. It was really not my kind of band, bu"}}, {"type": "Feature", "geometry": {"type": "Point", "coordinates": [-82.6881395, 40.2253569]}, "properties": {"name": "Ohio", "context": "ut I was moved to see Neil Young, since his song \u201cOhio\u201d had made a great impression on me. It seemed to "}}, {"type": "Feature", "geometry": {"type": "Point", "coordinates": [0.1186637, 52.2055314]}, "properties": {"name": "Cambridge", "context": "eguiled by Edie Sedgwick, who was studying art in Cambridge, and followed her to New York City, giving up eve"}}, {"type": "Feature", "geometry": {"type": "Point", "coordinates": [-18.1059013, 64.9841821]}, "properties": {"name": "Island", "context": "a. He asked me to read for a role in his new play Island. I was a little skeptical, but as he handed me th"}}, {"type": "Feature", "geometry": {"type": "Point", "coordinates": [4.9696397, 48.2820022]}, "properties": {"name": "Blaise", "context": "ormality of French prose poetry to the bravado of Blaise Cendrars, Mayakovsky, and Gregory Corso. Through "}}, {"type": "Feature", "geometry": {"type": "Point", "coordinates": [3.965783, 49.0515653]}, "properties": {"name": "magenta", "context": "d to recording, and came into town resplendent in magenta, pink, and purple feather boas. She wore them eve"}}, {"type": "Feature", "geometry": {"type": "Point", "coordinates": [-103.4431539, 20.5764562]}, "properties": {"name": "Hong Fat", "context": "watch him interact with strangers. We would go to Hong Fat because it was cheap and the dumplings were good,"}}, {"type": "Feature", "geometry": {"type": "Point", "coordinates": [115.61960994913757, -33.3937947324996]}, "properties": {"name": "Kwell", "context": "om the other as we underwent a tedious regimen of Kwell lice shampooing in any one of the unmanned Chelse"}}, {"type": "Feature", "geometry": {"type": "Point", "coordinates": [-74.1182492, 42.0410578]}, "properties": {"name": "Woodstock", "context": " of amassing musicians from all over the world in Woodstock and they would sit in a field in a circle and pla"}}, {"type": "Feature", "geometry": {"type": "Point", "coordinates": [-100.445882, 39.7837304]}, "properties": {"name": "Los Angeles", "context": " an overdose in room 105 of the Landmark Hotel in Los Angeles, twenty-seven years old.Johnny plunged. Brian Jon"}}, {"type": "Feature", "geometry": {"type": "Point", "coordinates": [4.351697, 50.8465573]}, "properties": {"name": "Brussels", "context": "to Baudelaire when he trudged through a winter in Brussels sick and alone.I was a bit more resourceful than "}}, {"type": "Feature", "geometry": {"type": "Point", "coordinates": [-2.737755118017627, 53.97394385]}, "properties": {"name": "St. Mark\u2019s Church", "context": " first time an electric guitar had been played in St. Mark\u2019s Church, provoking cheers and jeers. As this was hallowed"}}, {"type": "Feature", "geometry": {"type": "Point", "coordinates": [1.1878184, 43.8611186]}, "properties": {"name": "Cavale", "context": "\u2019re on, Patti Lee.\u201dI decided to call my character Cavale. I got it from a French-Algerian writer named Alb"}}, {"type": "Feature", "geometry": {"type": "Point", "coordinates": [-99.1331785, 19.4326296]}, "properties": {"name": "Mexico", "context": "m left. And when Steve Paul offered to take me to Mexico with some other musicians to write songs, Robert "}}, {"type": "Feature", "geometry": {"type": "Point", "coordinates": [-99.8940182, 16.8680495]}, "properties": {"name": "Acapulco", "context": "t I loved: coffee and Diego Rivera. We arrived in Acapulco in mid-June and stayed in a sprawling villa overl"}}, {"type": "Feature", "geometry": {"type": "Point", "coordinates": [-73.96808424536403, 40.7489457]}, "properties": {"name": "New York\u2019s", "context": "ried to Maxime de la Falaise, a leading figure in New York\u2019s high society. John and Maxime provided Robert wit"}}, {"type": "Feature", "geometry": {"type": "Point", "coordinates": [-83.1137366, 32.3293809]}, "properties": {"name": "Georgia", "context": " public, including Stieglitz\u2019s exquisite nudes of Georgia O\u2019Keeffe. Taken at the height of their relationsh"}}, {"type": "Feature", "geometry": {"type": "Point", "coordinates": [-0.766269786703021, 53.18656235]}, "properties": {"name": "St. Cecilia", "context": "ire of references from Pythagorean mathematics to St. Cecilia, the patron saint of music. His opinions were bac"}}, {"type": "Feature", "geometry": {"type": "Point", "coordinates": [-86.2820081, 35.7730076]}, "properties": {"name": "Tennessee", "context": "e Civil War poet Sidney Lanier and the playwright Tennessee Lanier Williams. He was soft-spoken, encouraging,"}}, {"type": "Feature", "geometry": {"type": "Point", "coordinates": [-95.1530516, 43.3955188]}, "properties": {"name": "Omaha Beach", "context": "n the Navy who took part in the D-Day invasion on Omaha Beach, and had served as curator at the Wadsworth Athen"}}, {"type": "Feature", "geometry": {"type": "Point", "coordinates": [-85.2936911, 12.6090157]}, "properties": {"name": "Nicaragua", "context": "d perished while on a humanitarian mission to aid Nicaragua in the aftermath of a terrible earthquake. I chid"}}, {"type": "Feature", "geometry": {"type": "Point", "coordinates": [2.2461658, 49.3571636]}, "properties": {"name": "Hermes", "context": "the shop\u2019s motto, Wise men fish here.I dragged my Hermes 2000 from under the bed. (My Remington had bit th"}}, {"type": "Feature", "geometry": {"type": "Point", "coordinates": [6.015425784935906, 59.02031475]}, "properties": {"name": "Strand", "context": "llen paid our rent and I made pocket money at the Strand. Sam and Robert took me to eat every afternoon, a"}}, {"type": "Feature", "geometry": {"type": "Point", "coordinates": [42.1284445, 9.3118397]}, "properties": {"name": "Harar", "context": "ng in the language of science. In the hellhole of Harar, he manned the coffee fields and scaled the high "}}, {"type": "Feature", "geometry": {"type": "Point", "coordinates": [38.6521203, 10.2116702]}, "properties": {"name": "Ethiopia", "context": "p.I awoke with a sudden revelation. I would go to Ethiopia and find this valise that seemed more like a sign"}}, {"type": "Feature", "geometry": {"type": "Point", "coordinates": [-3.704264, 40.4386349]}, "properties": {"name": "Canal", "context": " filmmaker Jack Smith\u2019s loft at Greene Street and Canal. It was my own bill, and anyone who was there had"}}, {"type": "Feature", "geometry": {"type": "Point", "coordinates": [87.4064278, 31.8280766]}, "properties": {"name": "Tibetan", "context": "mbed my hair away from my face and wrapped an old Tibetan robe made of tea-colored linen around me. Robert "}}, {"type": "Feature", "geometry": {"type": "Point", "coordinates": [3.6664318, 48.813549]}, "properties": {"name": "Charleville", "context": ", I thought I could at least make a pilgrimage to Charleville, France, where Rimbaud was born and buried. Unabl"}}, {"type": "Feature", "geometry": {"type": "Point", "coordinates": [9.1896346, 45.4641943]}, "properties": {"name": "Milan", "context": " cat\u2019s-eyes, nestled in a gray tweed case stamped Milan.On the Bowery I found an unconstructed raincoat o"}}, {"type": "Feature", "geometry": {"type": "Point", "coordinates": [2.3307369, 48.8389219]}, "properties": {"name": "Raspail", "context": "lked, as we had walked, up and down the boulevard Raspail. I located our street where we resided at 9 rue C"}}, {"type": "Feature", "geometry": {"type": "Point", "coordinates": [-113.62348389453098, 53.45633796985116]}, "properties": {"name": "Breathless", "context": "e and where Jean-Luc Godard shot precious bits of Breathless. I walked another block to the Montparnasse cemet"}}, {"type": "Feature", "geometry": {"type": "Point", "coordinates": [-1.0897727, 53.9567664]}, "properties": {"name": "Brancusi", "context": "the Montparnasse cemetery and paid my respects to Brancusi and Baudelaire.Guided by Enid Starkie, Rimbaud\u2019s "}}, {"type": "Feature", "geometry": {"type": "Point", "coordinates": [5.7871915, 44.0327092]}, "properties": {"name": "St. Rimbaud", "context": " sat on the floor and made a small pencil drawing\u2014St. Rimbaud, Charleville, Octobre 1973.I wanted a souvenir, a"}}, {"type": "Feature", "geometry": {"type": "Point", "coordinates": [66.97327357599237, 39.65405165]}, "properties": {"name": "poets?\u201dI", "context": " in English: \u201cAmerican! Why do you not honor your poets?\u201dI was very tired. I was twenty-six years old. All a"}}, {"type": "Feature", "geometry": {"type": "Point", "coordinates": [-76.2835554, 37.9101284]}, "properties": {"name": "Ophelia", "context": " of earth above Jim Morrison floated like bits of Ophelia\u2019s bouquet.\u201cEhh!\u201d she cried again. \u201cAnswer me, Am\u00e9"}}, {"type": "Feature", "geometry": {"type": "Point", "coordinates": [31.2357257, 30.0443879]}, "properties": {"name": "Cairo", "context": "d the Koran of Muhammad. I read Nerval\u2019s Women of Cairo, and the stories of Bowles, Mrabet, Albert Cosser"}}, {"type": "Feature", "geometry": {"type": "Point", "coordinates": [-119.75259045583402, 36.609505]}, "properties": {"name": "Bowles", "context": " read Nerval\u2019s Women of Cairo, and the stories of Bowles, Mrabet, Albert Cossery, and Isabelle Eberhardt. "}}, {"type": "Feature", "geometry": {"type": "Point", "coordinates": [-5.813316, 35.7209847]}, "properties": {"name": "Mrabet", "context": "rval\u2019s Women of Cairo, and the stories of Bowles, Mrabet, Albert Cossery, and Isabelle Eberhardt. Since ha"}}, {"type": "Feature", "geometry": {"type": "Point", "coordinates": [7.752152, 48.5833821]}, "properties": {"name": "Tadzio", "context": "ng. His presence brought to mind the character of Tadzio in Death in Venice.\u201cWhaddya want?\u201d he asked casua"}}, {"type": "Feature", "geometry": {"type": "Point", "coordinates": [-116.91371800979377, 36.42287215]}, "properties": {"name": "Death", "context": "esence brought to mind the character of Tadzio in Death in Venice.\u201cWhaddya want?\u201d he asked casually, and "}}, {"type": "Feature", "geometry": {"type": "Point", "coordinates": [12.3345898, 45.4371908]}, "properties": {"name": "Venice", "context": "ought to mind the character of Tadzio in Death in Venice.\u201cWhaddya want?\u201d he asked casually, and proceeded "}}, {"type": "Feature", "geometry": {"type": "Point", "coordinates": [-75.4013315, 38.6920451]}, "properties": {"name": "Delaware", "context": " the woods of New Jersey, the deserted beaches of Delaware, and flying saucers hovering in the western skies"}}, {"type": "Feature", "geometry": {"type": "Point", "coordinates": [-73.9798333, 40.7630368]}, "properties": {"name": "Ziegfeld", "context": "se of \u201cMarquee Moon.\u201dIt was a world away from the Ziegfeld. The absence of glamour made it seem all the more"}}, {"type": "Feature", "geometry": {"type": "Point", "coordinates": [-84.3674117, 33.8211152]}, "properties": {"name": "Lindbergh", "context": "tory partially due to my mother\u2019s fixation on the Lindbergh kidnapping and consequent fear of her children be"}}, {"type": "Feature", "geometry": {"type": "Point", "coordinates": [-122.272863, 37.8708393]}, "properties": {"name": "Berkeley", "context": "o. We played upstairs at Rather Ripped Records in Berkeley, and at an audition night at the Fillmore West wi"}}, {"type": "Feature", "geometry": {"type": "Point", "coordinates": [14.446459273258009, 50.0596288]}, "properties": {"name": "Prague", "context": "ed the blues. He had been an emerging pop star in Prague, but his dreams were shattered when his home coun"}}, {"type": "Feature", "geometry": {"type": "Point", "coordinates": [97.7453061, 64.6863136]}, "properties": {"name": "Russia", "context": "re shattered when his home country was invaded by Russia in 1968. Escaping with his family, he was obliged"}}, {"type": "Feature", "geometry": {"type": "Point", "coordinates": [-119.702667, 34.4221319]}, "properties": {"name": "Santa Barbara", "context": "o system. He had originally come to New York from Santa Barbara with Lance Loud\u2019s Mumps. Hardworking, somewhat sh"}}, {"type": "Feature", "geometry": {"type": "Point", "coordinates": [-96.4063734, 33.7746079]}, "properties": {"name": "Hendrix", "context": "\u201cLand,\u201d wild-boy imagery fused with the stages of Hendrix\u2019s death. In \u201cElegie,\u201d remembering them all, past,"}}, {"type": "Feature", "geometry": {"type": "Point", "coordinates": [-87.6244212, 41.8755616]}, "properties": {"name": "Chicago", "context": "worried so much that when I had three days off in Chicago, I went to an art supply store and bought several"}}, {"type": "Feature", "geometry": {"type": "Point", "coordinates": [-94.6477383, 42.7262681]}, "properties": {"name": "Pocahontas", "context": "bit flushed. He pulled my long braids, calling me Pocahontas. The energy between us was so intense that it see"}}, {"type": "Feature", "geometry": {"type": "Point", "coordinates": [-84.6824346, 43.6211955]}, "properties": {"name": "Michigan", "context": "us.\u201d\u00a0As I resumed the pattern of my daily life in Michigan, I found myself yearning for Robert\u2019s presence; I"}}, {"type": "Feature", "geometry": {"type": "Point", "coordinates": [139.2394179, 36.5748441]}, "properties": {"name": "Japan", "context": "ke it. Ever the collector, he wished to return to Japan, where he and Robert had traveled, as there was a"}}, {"type": "Feature", "geometry": {"type": "Point", "coordinates": [-93.3112552, 41.4652721]}, "properties": {"name": "swan", "context": "f the performance I held the image of a trumpeter swan, the swan of my childhood.I slipped outside into "}}, {"type": "Feature", "geometry": {"type": "Point", "coordinates": [-90.1830408, 32.2998686]}, "properties": {"name": "Jackson", "context": " that\u2019s all he ever needed. Animated portraits of Jackson, Fred, and me together, the four of us, and then,"}}, {"type": "Feature", "geometry": {"type": "Point", "coordinates": [-88.03438575252127, 15.47840725]}, "properties": {"name": "Cort\u00e9s", "context": "tring of words more precious than the emeralds of Cort\u00e9s. Yet I have a lock of his hair, a handful of his "}}, {"type": "Feature", "geometry": {"type": "Point", "coordinates": [3.0927877, 46.9144551]}, "properties": {"name": "the French Republic", "context": "ettres, the highest honor awarded to an artist by the French Republic. She was inducted into the Rock and Roll Hall of "}}, {"type": "Feature", "geometry": {"type": "Point", "coordinates": [172.8344077, -41.5000831]}, "properties": {"name": "New Zealand", "context": "llinsebooks.caNew ZealandHarperCollinsPublishers (New Zealand) LimitedP.O. Box 1Auckland, New Zealandhttp://www"}}]}